Business Name,Category,Price,Rating,Review Count,Address,Neighborhood,City,State,Country,Zipcode,Latitude,Longitude,Phone Number,Email,Website,Instagram,Facebook,Twitter,Tiktok
First Investors Servicing Corporation,Financial institution,$,2.3,36.0,"3065 Akers Mill Rd SE Suite 700, Atlanta, GA 30339",Cumberland, Atlanta,,US,30339,33.8790819,-84.462619,(770) 956-3800,,http://www.fifsg.com,,,,
Frugal Kitchens & Cabinets,Cabinet maker,$,2.7,14.0,"2855 N Druid Hills Rd B, Atlanta, GA 30329",Toco Hills, Atlanta,,US,30329,33.8169584,-84.3128609,(678) 210-5054,dynamix-logo-white@2x.png,http://www.frugalkitchens.com,,https://www.facebook.com/FrugalKitchens/,,
Sonic Drive-In,Fast food restaurant,$,2.0,40.0,"1425 Ellsworth Industrial Blvd NW, Atlanta, GA 30318",Blandtown, Atlanta,,US,30318,33.7939488,-84.4263469,(866) 657-6642,digitalaccessibillity@sonicdrivein.com,https://locations.sonicdrivein.com,http://instagram.com/sonicdrivein,https://www.facebook.com/sonicdrivein,https://twitter.com/sonicdrivein,
Catch 12,Restaurant,$,2.9,41.0,"400 W Peachtree St NW #12, Atlanta, GA 30308",Hotel District, Atlanta,,US,30308,33.7654632,-84.3877429,(404) 418-1250,feedback@twelvehotels.com,https://catchtwelveatlanta.com,https://www.instagram.com/catch12atlanta/,https://www.facebook.com/catch12atlanta/,,
Uncle Sam's New York Walking Tours,Sightseeing tour agency,$,2.4,5.0,"501 5th Ave STE 701, New York, NY 10017",Manhattan, New York,,US,10017,40.753198,-73.9808149,(212) 888-8769,info@unclesamstours.com,http://www.unclesamsnewyork.com,,,,
53 Broadway,Apartment building,$,2.3,3.0,"Brooklyn, NY 11249",Williamsburg,Brooklyn,,US,0,40.7107469,-73.9662715,(718) 715-1117,leasing@53broadway.com,http://www.53broadway.com,,,,
Newsical The Musical,Theater production,$,2.5,35.0,"410 W 42nd St, New York, NY 10036",Manhattan, New York,,US,10036,40.7583763,-73.9934141,(212) 239-6200,"core-js-bundle@3.2.1, focus-within-polyfill@5.0.9, 605a7baede844d278b89dc95ae0a9123@sentry-next.wixpress.com, 831126cb46b74583bf6f72c5061cba9d@sentry-viewer.wixpress.com, 8eb368c655b84e029ed79ad7a5c1718e@sentry.wixpress.com, lodash@4.17.21, react@16.14.0, react-dom@16.14.0",http://www.newsicalthemusical.com,https://www.instagram.com/NEWSicalTheMusical,https://www.facebook.com/NEWSicalTheMusical,,
